[
    {
      "id": 1,
      "name": "embrace wireless e-commerce",
      "country": "French Guiana",
      "city": "Mitchellmouth",
      "street": "761 Jeremy Locks Apt. 300\nLake Jaronmouth, UT 39852",
      "streetNumber": 671,
      "latitude": 8.1275024,
      "longitude": 176.8801575,
      "establishmentId": 1,
      "": ""
    },
    {
      "id": 2,
      "name": "visualize e-business infrastructures",
      "country": "Kazakhstan",
      "city": "Gerholdfurt",
      "street": "595 Jakubowski Squares\nLucieport, ME 46880-6945",
      "streetNumber": 9564,
      "latitude": -39.5706596,
      "longitude": 14.6558266,
      "establishmentId": 2,
      "": ""
    },
    {
      "id": 3,
      "name": "matrix front-end architectures",
      "country": "Svalbard & Jan Mayen Islands",
      "city": "Dooleybury",
      "street": "476 Luettgen Lake\nPort Kiana, AZ 47315-4004",
      "streetNumber": 964550,
      "latitude": -21.6276283,
      "longitude": 16.4480114,
      "establishmentId": 3,
      "": ""
    },
    {
      "id": 4,
      "name": "embrace granular portals",
      "country": "South Africa",
      "city": "South Tiannamouth",
      "street": "9591 Filomena Estates Apt. 636\nWest Kileyberg, MO 10308",
      "streetNumber": 896,
      "latitude": 38.9391479,
      "longitude": 73.1551743,
      "establishmentId": 4,
      "": ""
    },
    {
      "id": 5,
      "name": "transition best-of-breed bandwidth",
      "country": "Cocos (Keeling) Islands",
      "city": "Effieside",
      "street": "6723 Hills Inlet Suite 921\nGorczanymouth, ND 81304",
      "streetNumber": 221,
      "latitude": 42.8934517,
      "longitude": -164.4203491,
      "establishmentId": 5,
      "": ""
    },
    {
      "id": 6,
      "name": "optimize scalable technologies",
      "country": "Nauru",
      "city": "East Filibertostad",
      "street": "920 Iva Common Suite 433\nMaxinehaven, SC 72608",
      "streetNumber": 7023370,
      "latitude": -88.1259384,
      "longitude": 10.3771048,
      "establishmentId": 6,
      "": ""
    },
    {
      "id": 7,
      "name": "cultivate efficient users",
      "country": "Colombia",
      "city": "West Dallin",
      "street": "53623 Steuber Field Apt. 603\nNew Hallebury, ME 97320-9296",
      "streetNumber": 3026,
      "latitude": 50.9871521,
      "longitude": 97.5968323,
      "establishmentId": 7,
      "": ""
    },
    {
      "id": 8,
      "name": "whiteboard impactful vortals",
      "country": "Nicaragua",
      "city": "East Gabrielle",
      "street": "224 Macejkovic Land\nNew Kaylahfurt, WV 84233",
      "streetNumber": 0,
      "latitude": -23.4564819,
      "longitude": -150.9729156,
      "establishmentId": 8,
      "": ""
    },
    {
      "id": 9,
      "name": "harness next-generation initiatives",
      "country": "Burkina Faso",
      "city": "Port Nikolas",
      "street": "36942 Piper Turnpike\nEast Glennaside, ND 42623-5852",
      "streetNumber": 580332,
      "latitude": 60.9414177,
      "longitude": -79.6354523,
      "establishmentId": 9,
      "": ""
    },
    {
      "id": 10,
      "name": "mesh best-of-breed webservices",
      "country": "Svalbard & Jan Mayen Islands",
      "city": "Coleland",
      "street": "65357 Juliet Terrace Apt. 338\nGwenmouth, KY 40267-0303",
      "streetNumber": 270555957,
      "latitude": 34.8649902,
      "longitude": -128.4177399,
      "establishmentId": 10,
      "": ""
    },
    {
      "id": 11,
      "name": "whiteboard 24/365 communities",
      "country": "South Georgia and the South Sandwich Islands",
      "city": "Jackside",
      "street": "5244 Hettinger Corner\nLake Wilburn, MD 76728",
      "streetNumber": 0,
      "latitude": -41.2365723,
      "longitude": -41.8904419,
      "establishmentId": 1,
      "": ""
    },
    {
      "id": 12,
      "name": "repurpose collaborative supply-chains",
      "country": "Ukraine",
      "city": "New Ervin",
      "street": "8942 Paolo Parkway\nStehrmouth, OR 26482",
      "streetNumber": 6341,
      "latitude": 76.3106308,
      "longitude": 114.0645065,
      "establishmentId": 2,
      "": ""
    },
    {
      "id": 13,
      "name": "transform plug-and-play methodologies",
      "country": "Antigua and Barbuda",
      "city": "Berylport",
      "street": "6035 D'angelo Light Suite 368\nGeraldineport, NY 19953",
      "streetNumber": 733320,
      "latitude": -20.0138969,
      "longitude": 150.8011017,
      "establishmentId": 3,
      "": ""
    },
    {
      "id": 14,
      "name": "transform B2C web-readiness",
      "country": "French Polynesia",
      "city": "Port Della",
      "street": "8898 Jaylin Valleys\nNorth Constance, HI 84619",
      "streetNumber": 5340,
      "latitude": 23.6566696,
      "longitude": -162.6184692,
      "establishmentId": 4,
      "": ""
    },
    {
      "id": 15,
      "name": "engineer enterprise content",
      "country": "Croatia",
      "city": "Eladioshire",
      "street": "0401 Electa Field Suite 912\nLake Doloresland, MT 91179-5662",
      "streetNumber": 2,
      "latitude": -21.0973644,
      "longitude": -108.5049133,
      "establishmentId": 5,
      "": ""
    },
    {
      "id": 16,
      "name": "redefine world-class content",
      "country": "Chad",
      "city": "South Raeborough",
      "street": "4087 Thaddeus Lane Suite 108\nJamalview, MD 53225",
      "streetNumber": 6104269,
      "latitude": 48.5165062,
      "longitude": 159.0669708,
      "establishmentId": 6,
      "": ""
    },
    {
      "id": 17,
      "name": "revolutionize visionary e-business",
      "country": "Papua New Guinea",
      "city": "West Cobyville",
      "street": "917 Keeley Forest Apt. 551\nEast Mosesmouth, ID 61883-3036",
      "streetNumber": 61,
      "latitude": 43.6951637,
      "longitude": 45.8534813,
      "establishmentId": 7,
      "": ""
    },
    {
      "id": 18,
      "name": "utilize mission-critical applications",
      "country": "Nigeria",
      "city": "East Treva",
      "street": "693 Krista Station Suite 608\nBrisatown, MD 69278",
      "streetNumber": 250848,
      "latitude": -29.9172211,
      "longitude": -106.3094788,
      "establishmentId": 8,
      "": ""
    },
    {
      "id": 19,
      "name": "mesh efficient models",
      "country": "Netherlands",
      "city": "North Talia",
      "street": "71212 Larkin Light\nSouth Sylvester, CO 93567",
      "streetNumber": 39730523,
      "latitude": -10.0000324,
      "longitude": -104.2019348,
      "establishmentId": 9,
      "": ""
    },
    {
      "id": 20,
      "name": "reintermediate leading-edge niches",
      "country": "Montserrat",
      "city": "Robertshaven",
      "street": "60678 Nader Knoll Apt. 922\nBeckermouth, NH 02096",
      "streetNumber": 217,
      "latitude": -32.3795204,
      "longitude": 127.9723206,
      "establishmentId": 10,
      "": ""
    },
    {
      "id": 21,
      "name": "deliver holistic networks",
      "country": "Myanmar",
      "city": "West Mozell",
      "street": "91509 Tillman Ranch Suite 608\nLindport, NE 71546-0623",
      "streetNumber": 7,
      "latitude": 67.8975677,
      "longitude": 172.0915527,
      "establishmentId": 1,
      "": ""
    },
    {
      "id": 22,
      "name": "maximize viral eyeballs",
      "country": "Saint Vincent and the Grenadines",
      "city": "West Luciouschester",
      "street": "56145 Parisian Plains\nBlandaland, MD 66711",
      "streetNumber": 5694,
      "latitude": -15.6492939,
      "longitude": 43.4713287,
      "establishmentId": 2,
      "": ""
    },
    {
      "id": 23,
      "name": "embrace revolutionary synergies",
      "country": "Jordan",
      "city": "Lake Laurynberg",
      "street": "8242 Ernser Tunnel\nCarrollborough, NV 12529",
      "streetNumber": 9208967,
      "latitude": -71.8379822,
      "longitude": -117.8220749,
      "establishmentId": 3,
      "": ""
    },
    {
      "id": 24,
      "name": "brand front-end infrastructures",
      "country": "Christmas Island",
      "city": "Schoenville",
      "street": "7221 Langosh Neck\nRaymundoport, ME 97758",
      "streetNumber": 317980,
      "latitude": -45.8754997,
      "longitude": 52.8520432,
      "establishmentId": 4,
      "": ""
    },
    {
      "id": 25,
      "name": "mesh global vortals",
      "country": "Mayotte",
      "city": "Macejkovicview",
      "street": "4072 Connie Hills Apt. 282\nHackettton, MA 33292",
      "streetNumber": 0,
      "latitude": -13.0249748,
      "longitude": -129.5153961,
      "establishmentId": 5,
      "": ""
    },
    {
      "id": 26,
      "name": "synthesize revolutionary e-business",
      "country": "Spain",
      "city": "Barrettside",
      "street": "7390 Ritchie Pines Suite 696\nSouth Erinstad, ME 41478-6082",
      "streetNumber": 0,
      "latitude": 21.4768009,
      "longitude": 90.6297531,
      "establishmentId": 6,
      "": ""
    },
    {
      "id": 27,
      "name": "disintermediate impactful ROI",
      "country": "Greenland",
      "city": "North Justina",
      "street": "78515 Sim Drive Suite 749\nGeraldfort, AZ 78810",
      "streetNumber": 185,
      "latitude": -35.2817802,
      "longitude": -71.8551178,
      "establishmentId": 7,
      "": ""
    },
    {
      "id": 28,
      "name": "facilitate bleeding-edge architectures",
      "country": "Sweden",
      "city": "South Rogers",
      "street": "288 Kylee Walks Suite 409\nLake Thadview, CO 70202-1179",
      "streetNumber": 1409,
      "latitude": -66.6407547,
      "longitude": 132.47258,
      "establishmentId": 8,
      "": ""
    },
    {
      "id": 29,
      "name": "envisioneer collaborative convergence",
      "country": "United States Minor Outlying Islands",
      "city": "Stevehaven",
      "street": "550 Kunde Extension\nRubenville, AK 53430-8586",
      "streetNumber": 77841,
      "latitude": -83.1327744,
      "longitude": 95.8088303,
      "establishmentId": 9,
      "": ""
    },
    {
      "id": 30,
      "name": "productize 24/7 channels",
      "country": "Aruba",
      "city": "Lake Jarvis",
      "street": "6507 Lueilwitz Cove\nWest Caseyside, VT 97815",
      "streetNumber": 0,
      "latitude": 45.1121788,
      "longitude": -153.8455811,
      "establishmentId": 10,
      "": ""
    },
    {
      "id": 31,
      "name": "reintermediate revolutionary interfaces",
      "country": "Mauritius",
      "city": "South Candicefurt",
      "street": "1976 Gulgowski Bridge Suite 951\nWarrenberg, NY 33498-9702",
      "streetNumber": 86094274,
      "latitude": 87.0427551,
      "longitude": -54.3212509,
      "establishmentId": 1,
      "": ""
    },
    {
      "id": 32,
      "name": "grow robust platforms",
      "country": "Jordan",
      "city": "Erniemouth",
      "street": "961 O'Conner Valleys\nPort Roel, DE 13454",
      "streetNumber": 737086167,
      "latitude": 12.9277439,
      "longitude": 80.0113831,
      "establishmentId": 2,
      "": ""
    },
    {
      "id": 33,
      "name": "empower leading-edge schemas",
      "country": "Turkey",
      "city": "West Sedrickmouth",
      "street": "74969 Nitzsche Lights\nGenevieveberg, LA 63981",
      "streetNumber": 8015517,
      "latitude": -17.4592133,
      "longitude": 71.9991608,
      "establishmentId": 3,
      "": ""
    },
    {
      "id": 34,
      "name": "target impactful markets",
      "country": "Christmas Island",
      "city": "Kaceymouth",
      "street": "32232 Mayer Walks\nEraborough, ME 41620-3965",
      "streetNumber": 32,
      "latitude": -40.6954269,
      "longitude": -52.2345428,
      "establishmentId": 4,
      "": ""
    },
    {
      "id": 35,
      "name": "extend interactive solutions",
      "country": "Malta",
      "city": "Creolashire",
      "street": "065 Jaden Loaf\nRoxanetown, HI 27350",
      "streetNumber": 2587,
      "latitude": -13.9371681,
      "longitude": -60.6672516,
      "establishmentId": 5,
      "": ""
    },
    {
      "id": 36,
      "name": "grow open-source paradigms",
      "country": "El Salvador",
      "city": "East Dudleyville",
      "street": "852 Reina Hollow Suite 819\nEast Trisha, NY 11922-8136",
      "streetNumber": 76239004,
      "latitude": -38.2964134,
      "longitude": 78.1488876,
      "establishmentId": 6,
      "": ""
    },
    {
      "id": 37,
      "name": "optimize transparent users",
      "country": "Antigua and Barbuda",
      "city": "Adrielmouth",
      "street": "1211 Katarina Field Suite 267\nCrawfordhaven, OK 33510",
      "streetNumber": 9897,
      "latitude": -72.1212769,
      "longitude": -59.7282982,
      "establishmentId": 7,
      "": ""
    },
    {
      "id": 38,
      "name": "transform out-of-the-box initiatives",
      "country": "Cayman Islands",
      "city": "West Pearlineside",
      "street": "434 Mozelle Camp Suite 725\nSchmittland, WI 61798",
      "streetNumber": 886108432,
      "latitude": -38.472271,
      "longitude": -127.8032532,
      "establishmentId": 8,
      "": ""
    },
    {
      "id": 39,
      "name": "innovate customized mindshare",
      "country": "Ecuador",
      "city": "East Pattieshire",
      "street": "3079 Graham Haven\nStephanyhaven, MA 25293",
      "streetNumber": 326349716,
      "latitude": 12.047122,
      "longitude": 154.3043823,
      "establishmentId": 9,
      "": ""
    },
    {
      "id": 40,
      "name": "benchmark dynamic markets",
      "country": "Mongolia",
      "city": "Lake Turner",
      "street": "651 Naomie Alley\nEast Devinmouth, OH 12967-1942",
      "streetNumber": 1242,
      "latitude": 63.2485809,
      "longitude": -19.6354618,
      "establishmentId": 10,
      "": ""
    },
    {
      "id": 41,
      "name": "e-enable magnetic ROI",
      "country": "Guatemala",
      "city": "Leilaniburgh",
      "street": "238 Will Port Suite 515\nCummingsstad, VA 65440",
      "streetNumber": 559270,
      "latitude": -27.0477104,
      "longitude": -163.4847565,
      "establishmentId": 1,
      "": ""
    },
    {
      "id": 42,
      "name": "utilize viral supply-chains",
      "country": "Madagascar",
      "city": "Ratkefort",
      "street": "5149 Schoen Spur Apt. 781\nPearliechester, WI 02864-4273",
      "streetNumber": 8223,
      "latitude": -40.5023689,
      "longitude": 39.9376602,
      "establishmentId": 2,
      "": ""
    },
    {
      "id": 43,
      "name": "synergize interactive methodologies",
      "country": "Svalbard & Jan Mayen Islands",
      "city": "Prohaskahaven",
      "street": "44495 Spencer Trafficway Apt. 916\nSouth Perrystad, NV 70477-9309",
      "streetNumber": 53056946,
      "latitude": -17.2065525,
      "longitude": -79.3483047,
      "establishmentId": 3,
      "": ""
    },
    {
      "id": 44,
      "name": "productize web-enabled niches",
      "country": "Botswana",
      "city": "Port Albinabury",
      "street": "602 Pagac View Suite 602\nGaylehaven, DE 28551",
      "streetNumber": 49249414,
      "latitude": -51.3518829,
      "longitude": 100.4256516,
      "establishmentId": 4,
      "": ""
    },
    {
      "id": 45,
      "name": "utilize back-end convergence",
      "country": "Thailand",
      "city": "West Mylene",
      "street": "568 Ernser Parkway\nJonesview, MD 29055",
      "streetNumber": 87894694,
      "latitude": -61.5822945,
      "longitude": -62.5118294,
      "establishmentId": 5,
      "": ""
    },
    {
      "id": 46,
      "name": "exploit bleeding-edge architectures",
      "country": "Libyan Arab Jamahiriya",
      "city": "Ressieside",
      "street": "7818 Kristin Shoals\nSarahborough, CO 36132",
      "streetNumber": 1793257,
      "latitude": 80.0045319,
      "longitude": -167.7277374,
      "establishmentId": 6,
      "": ""
    },
    {
      "id": 47,
      "name": "exploit impactful portals",
      "country": "Mozambique",
      "city": "Hilperttown",
      "street": "28914 Haskell Ramp Suite 411\nNorth Daisha, CO 01752-3007",
      "streetNumber": 62,
      "latitude": 30.9855957,
      "longitude": 156.2390442,
      "establishmentId": 7,
      "": ""
    },
    {
      "id": 48,
      "name": "unleash transparent webservices",
      "country": "Serbia",
      "city": "Quitzonbury",
      "street": "337 Mertz Turnpike Suite 067\nEldonview, KS 21910-0835",
      "streetNumber": 53405,
      "latitude": 30.8275127,
      "longitude": -142.5461121,
      "establishmentId": 8,
      "": ""
    },
    {
      "id": 49,
      "name": "architect leading-edge markets",
      "country": "Niue",
      "city": "Manteland",
      "street": "81089 Gilda Passage Suite 301\nPurdyburgh, MT 92036-1873",
      "streetNumber": 502071,
      "latitude": -40.9803009,
      "longitude": 123.8957748,
      "establishmentId": 9,
      "": ""
    },
    {
      "id": 50,
      "name": "whiteboard enterprise communities",
      "country": "Honduras",
      "city": "North Abdielport",
      "street": "89882 Quigley Centers Apt. 804\nNew Twilamouth, AZ 73864",
      "streetNumber": 258484572,
      "latitude": 49.5629539,
      "longitude": 108.9446564,
      "establishmentId": 10,
      "": ""
    },
    {
      "id": 51,
      "name": "enhance scalable technologies",
      "country": "United States Minor Outlying Islands",
      "city": "North Sydnie",
      "street": "26228 Williamson Ports\nEast Jammie, OK 12083-7139",
      "streetNumber": 39035,
      "latitude": 66.0451355,
      "longitude": 166.0496063,
      "establishmentId": 1,
      "": ""
    },
    {
      "id": 52,
      "name": "repurpose visionary infomediaries",
      "country": "Lesotho",
      "city": "Turnerfort",
      "street": "14607 Rosenbaum Canyon Suite 316\nEast Alex, NJ 51527",
      "streetNumber": 5,
      "latitude": 28.8986702,
      "longitude": -59.6280594,
      "establishmentId": 2,
      "": ""
    },
    {
      "id": 53,
      "name": "incentivize revolutionary ROI",
      "country": "Slovakia (Slovak Republic)",
      "city": "Carsonport",
      "street": "224 Runte Rapids\nLegrosborough, NY 34225",
      "streetNumber": 8,
      "latitude": -34.85112,
      "longitude": 46.930706,
      "establishmentId": 3,
      "": ""
    },
    {
      "id": 54,
      "name": "mesh enterprise users",
      "country": "Portugal",
      "city": "Halieview",
      "street": "5785 Melvin Corner Suite 447\nWest Daxton, ID 42427-2324",
      "streetNumber": 1,
      "latitude": 28.2121716,
      "longitude": 136.1481934,
      "establishmentId": 4,
      "": ""
    },
    {
      "id": 55,
      "name": "embrace scalable convergence",
      "country": "Iran",
      "city": "Lake Sigmundmouth",
      "street": "5917 Kilback Valleys Suite 600\nPort Helmer, NM 46458",
      "streetNumber": 4961,
      "latitude": -68.5718842,
      "longitude": 7.7078199,
      "establishmentId": 5,
      "": ""
    },
    {
      "id": 56,
      "name": "engage enterprise eyeballs",
      "country": "United States Virgin Islands",
      "city": "East Carlo",
      "street": "0351 Harvey Island\nLake Edenfort, CT 49165",
      "streetNumber": 14459374,
      "latitude": -78.1839981,
      "longitude": -164.0847015,
      "establishmentId": 6,
      "": ""
    },
    {
      "id": 57,
      "name": "orchestrate killer e-business",
      "country": "Senegal",
      "city": "Dickichester",
      "street": "277 Shawn Green\nHermannborough, GA 54986-8035",
      "streetNumber": 74813073,
      "latitude": 52.127758,
      "longitude": -42.8903465,
      "establishmentId": 7,
      "": ""
    },
    {
      "id": 58,
      "name": "envisioneer cross-media infomediaries",
      "country": "Slovakia (Slovak Republic)",
      "city": "East Kathlynville",
      "street": "5225 Stanton Road\nSouth Gregg, SD 28018",
      "streetNumber": 0,
      "latitude": -82.4097214,
      "longitude": -87.5048141,
      "establishmentId": 8,
      "": ""
    },
    {
      "id": 59,
      "name": "revolutionize ubiquitous action-items",
      "country": "Tajikistan",
      "city": "South Natashaside",
      "street": "66414 Duncan Crest\nNew Ebonychester, CO 04389-7390",
      "streetNumber": 69465,
      "latitude": 60.6453209,
      "longitude": -40.3365631,
      "establishmentId": 9,
      "": ""
    },
    {
      "id": 60,
      "name": "synergize value-added deliverables",
      "country": "Gambia",
      "city": "Hammesbury",
      "street": "225 King Drives\nGottliebland, ID 77566-3252",
      "streetNumber": 51115,
      "latitude": 72.3687515,
      "longitude": -149.0740967,
      "establishmentId": 10,
      "": ""
    },
    {
      "id": 61,
      "name": "grow wireless web-readiness",
      "country": "Mayotte",
      "city": "Dovieberg",
      "street": "64475 Maximillian Rapids Apt. 620\nCaspershire, NY 55243",
      "streetNumber": 40369445,
      "latitude": 10.458396,
      "longitude": -75.0774765,
      "establishmentId": 1,
      "": ""
    },
    {
      "id": 62,
      "name": "empower impactful channels",
      "country": "United States of America",
      "city": "Rachelleburgh",
      "street": "076 DuBuque Heights Apt. 597\nTrompview, TN 05630-3012",
      "streetNumber": 0,
      "latitude": -41.8946114,
      "longitude": 129.6240845,
      "establishmentId": 2,
      "": ""
    },
    {
      "id": 63,
      "name": "engage user-centric initiatives",
      "country": "Malawi",
      "city": "North Sister",
      "street": "17180 Ned Corner Apt. 038\nWest Trentmouth, NE 55931",
      "streetNumber": 51355227,
      "latitude": 14.4503164,
      "longitude": 7.0155921,
      "establishmentId": 3,
      "": ""
    },
    {
      "id": 64,
      "name": "engineer wireless e-commerce",
      "country": "Portugal",
      "city": "Oberbrunnerville",
      "street": "18086 Lester Bypass Apt. 386\nMattport, NC 63062-6837",
      "streetNumber": 4,
      "latitude": 3.7052939,
      "longitude": -167.5894165,
      "establishmentId": 4,
      "": ""
    },
    {
      "id": 65,
      "name": "repurpose customized action-items",
      "country": "Germany",
      "city": "East Reina",
      "street": "151 Parker Lodge Apt. 386\nPort Blanche, AL 53405-6686",
      "streetNumber": 38674,
      "latitude": 32.3643417,
      "longitude": 122.0412292,
      "establishmentId": 5,
      "": ""
    },
    {
      "id": 66,
      "name": "brand frictionless networks",
      "country": "Uganda",
      "city": "Gideonchester",
      "street": "4168 Tyreek Parks Suite 894\nWest Herminia, MA 01803",
      "streetNumber": 3715453,
      "latitude": 79.974884,
      "longitude": -78.4935608,
      "establishmentId": 6,
      "": ""
    },
    {
      "id": 67,
      "name": "reinvent customized channels",
      "country": "United States Virgin Islands",
      "city": "Schmidthaven",
      "street": "97893 Tromp Divide Apt. 346\nLake Macieberg, WI 64113",
      "streetNumber": 412571011,
      "latitude": 8.2363758,
      "longitude": 78.3817596,
      "establishmentId": 7,
      "": ""
    },
    {
      "id": 68,
      "name": "aggregate robust experiences",
      "country": "Brazil",
      "city": "Macyland",
      "street": "6591 Katherine Station\nMonahanfort, WV 31831",
      "streetNumber": 172726,
      "latitude": 40.7427139,
      "longitude": 51.52882,
      "establishmentId": 8,
      "": ""
    },
    {
      "id": 69,
      "name": "harness cross-platform portals",
      "country": "China",
      "city": "North Rhiannon",
      "street": "366 Elmo Curve\nJastville, ND 02001",
      "streetNumber": 583,
      "latitude": 11.5549803,
      "longitude": -132.3655243,
      "establishmentId": 9,
      "": ""
    },
    {
      "id": 70,
      "name": "deploy visionary partnerships",
      "country": "Iran",
      "city": "New Mitchell",
      "street": "85338 Myah Light\nDandreborough, VT 84619",
      "streetNumber": 59652403,
      "latitude": -83.5925903,
      "longitude": -71.3943253,
      "establishmentId": 10,
      "": ""
    },
    {
      "id": 71,
      "name": "enhance enterprise experiences",
      "country": "Dominican Republic",
      "city": "North Sylvesterside",
      "street": "070 Eliezer Greens\nLake Belleshire, NV 80414-0955",
      "streetNumber": 874645883,
      "latitude": -66.9902954,
      "longitude": -25.7007923,
      "establishmentId": 1,
      "": ""
    },
    {
      "id": 72,
      "name": "synthesize distributed eyeballs",
      "country": "Saint Helena",
      "city": "Littlechester",
      "street": "597 D'Amore Radial Apt. 867\nNanniemouth, WA 43371",
      "streetNumber": 626,
      "latitude": 61.9864426,
      "longitude": 25.5357609,
      "establishmentId": 2,
      "": ""
    },
    {
      "id": 73,
      "name": "transform out-of-the-box e-business",
      "country": "Lithuania",
      "city": "Uliceston",
      "street": "51919 Cornell Lights Suite 407\nGeorgefurt, NH 30276",
      "streetNumber": 0,
      "latitude": 23.5598602,
      "longitude": -89.2781448,
      "establishmentId": 3,
      "": ""
    },
    {
      "id": 74,
      "name": "deploy granular infomediaries",
      "country": "Montserrat",
      "city": "Veldaville",
      "street": "97485 Demarcus Station Suite 950\nFritschville, OH 44527-5116",
      "streetNumber": 67595697,
      "latitude": 13.4946022,
      "longitude": -8.620513,
      "establishmentId": 4,
      "": ""
    },
    {
      "id": 75,
      "name": "aggregate wireless functionalities",
      "country": "Nauru",
      "city": "South Vilmashire",
      "street": "570 Leda Extensions Apt. 783\nChamplinhaven, MT 07790-5503",
      "streetNumber": 9118,
      "latitude": 19.8881359,
      "longitude": 171.1974487,
      "establishmentId": 5,
      "": ""
    },
    {
      "id": 76,
      "name": "cultivate intuitive synergies",
      "country": "Congo",
      "city": "North Damarisfort",
      "street": "60274 Hilpert Village\nElbertfurt, VT 23084",
      "streetNumber": 4,
      "latitude": -58.4714355,
      "longitude": 149.2433624,
      "establishmentId": 6,
      "": ""
    },
    {
      "id": 77,
      "name": "incentivize transparent solutions",
      "country": "Zimbabwe",
      "city": "Wunschstad",
      "street": "06680 Felipa Square\nLaynemouth, WV 66288-3326",
      "streetNumber": 5703,
      "latitude": -38.098156,
      "longitude": 71.6316147,
      "establishmentId": 7,
      "": ""
    },
    {
      "id": 78,
      "name": "engage out-of-the-box networks",
      "country": "Zambia",
      "city": "Hegmannton",
      "street": "846 Hickle Mountain\nWeberchester, AL 91260-5602",
      "streetNumber": 3199527,
      "latitude": -50.6026344,
      "longitude": 76.5314636,
      "establishmentId": 8,
      "": ""
    },
    {
      "id": 79,
      "name": "whiteboard dot-com e-markets",
      "country": "Saint Lucia",
      "city": "Dewittbury",
      "street": "2804 Stamm Station\nAshtonview, VA 35176",
      "streetNumber": 99270069,
      "latitude": -6.9689922,
      "longitude": 100.5432739,
      "establishmentId": 9,
      "": ""
    },
    {
      "id": 80,
      "name": "evolve distributed infrastructures",
      "country": "Cameroon",
      "city": "Daxtown",
      "street": "5706 Walter Mall Suite 740\nAylinview, SD 74618",
      "streetNumber": 6,
      "latitude": -68.4757233,
      "longitude": -4.540287,
      "establishmentId": 10,
      "": ""
    },
    {
      "id": 81,
      "name": "aggregate proactive ROI",
      "country": "China",
      "city": "West Chet",
      "street": "314 Stephan Point Suite 149\nZboncakville, DE 50939-6070",
      "streetNumber": 12,
      "latitude": 11.0348387,
      "longitude": 140.8151855,
      "establishmentId": 1,
      "": ""
    },
    {
      "id": 82,
      "name": "incubate granular applications",
      "country": "Latvia",
      "city": "South Hersheltown",
      "street": "986 Kuhn Field Suite 396\nLake Alfredo, NJ 08420-0754",
      "streetNumber": 48503,
      "latitude": -46.1063385,
      "longitude": -42.0792007,
      "establishmentId": 2,
      "": ""
    },
    {
      "id": 83,
      "name": "leverage B2C architectures",
      "country": "Tuvalu",
      "city": "Batzberg",
      "street": "0109 Balistreri Ferry Suite 420\nBethanymouth, MT 28318-4491",
      "streetNumber": 816511,
      "latitude": -23.9722862,
      "longitude": 163.33815,
      "establishmentId": 3,
      "": ""
    },
    {
      "id": 84,
      "name": "implement revolutionary e-commerce",
      "country": "France",
      "city": "Halieside",
      "street": "214 Grady Knolls Suite 999\nBoganport, IN 53662",
      "streetNumber": 71,
      "latitude": -82.6089478,
      "longitude": -83.6000214,
      "establishmentId": 4,
      "": ""
    },
    {
      "id": 85,
      "name": "incentivize leading-edge architectures",
      "country": "Nicaragua",
      "city": "Amelyborough",
      "street": "07046 Rafaela Mountain Suite 364\nShanontown, IL 10570",
      "streetNumber": 6,
      "latitude": -20.5383053,
      "longitude": -22.9857311,
      "establishmentId": 5,
      "": ""
    },
    {
      "id": 86,
      "name": "orchestrate enterprise systems",
      "country": "Bulgaria",
      "city": "Haagmouth",
      "street": "57596 Dayana Union\nLake Michelleport, MI 70933-8203",
      "streetNumber": 72,
      "latitude": 78.2058029,
      "longitude": 25.7598839,
      "establishmentId": 6,
      "": ""
    },
    {
      "id": 87,
      "name": "orchestrate dynamic markets",
      "country": "Yemen",
      "city": "Curtisstad",
      "street": "99648 Hettinger Garden\nWillaside, RI 44319",
      "streetNumber": 52027,
      "latitude": -67.8008194,
      "longitude": -157.2149506,
      "establishmentId": 7,
      "": ""
    },
    {
      "id": 88,
      "name": "brand virtual e-markets",
      "country": "Fiji",
      "city": "Rolfsonbury",
      "street": "15633 Bednar Causeway Apt. 411\nAbdullahborough, TN 38517-0318",
      "streetNumber": 2661177,
      "latitude": -74.2473373,
      "longitude": 117.6167374,
      "establishmentId": 8,
      "": ""
    },
    {
      "id": 89,
      "name": "incubate visionary interfaces",
      "country": "Philippines",
      "city": "South Felicity",
      "street": "4240 Farrell Canyon\nOlsonmouth, AR 64984-7627",
      "streetNumber": 82285741,
      "latitude": 43.5794716,
      "longitude": 48.7119026,
      "establishmentId": 9,
      "": ""
    },
    {
      "id": 90,
      "name": "envisioneer plug-and-play solutions",
      "country": "United States of America",
      "city": "Bartellshire",
      "street": "5192 Karli Groves\nEdahaven, VA 77871",
      "streetNumber": 61,
      "latitude": -23.7747746,
      "longitude": -178.0504608,
      "establishmentId": 10,
      "": ""
    },
    {
      "id": 91,
      "name": "optimize seamless initiatives",
      "country": "Togo",
      "city": "Lake Tyrell",
      "street": "74593 Tillman Gateway Suite 442\nSouth Camilashire, MD 68676-4139",
      "streetNumber": 17,
      "latitude": 22.7688236,
      "longitude": -168.0284882,
      "establishmentId": 1,
      "": ""
    },
    {
      "id": 92,
      "name": "generate cross-media schemas",
      "country": "Bermuda",
      "city": "West Vincenzoland",
      "street": "4371 Kemmer Land\nNew Nico, MD 08693-5400",
      "streetNumber": 8,
      "latitude": -61.8156128,
      "longitude": 62.6507835,
      "establishmentId": 2,
      "": ""
    },
    {
      "id": 93,
      "name": "scale vertical infrastructures",
      "country": "El Salvador",
      "city": "Lake Crystelfurt",
      "street": "8075 Feeney Ferry\nBashirianhaven, OH 77528",
      "streetNumber": 77240952,
      "latitude": 21.0378742,
      "longitude": -73.9727859,
      "establishmentId": 3,
      "": ""
    },
    {
      "id": 94,
      "name": "incentivize efficient mindshare",
      "country": "Turkmenistan",
      "city": "Luzside",
      "street": "27153 Erdman Grove Suite 731\nLake Graysonfurt, MT 13558-4425",
      "streetNumber": 0,
      "latitude": 30.1368313,
      "longitude": 85.4841995,
      "establishmentId": 4,
      "": ""
    },
    {
      "id": 95,
      "name": "monetize compelling functionalities",
      "country": "Wallis and Futuna",
      "city": "Saigemouth",
      "street": "55346 Marco Gateway Apt. 264\nNorth Angelashire, ND 18278-9897",
      "streetNumber": 60009,
      "latitude": -0.346661,
      "longitude": -34.7321205,
      "establishmentId": 5,
      "": ""
    },
    {
      "id": 96,
      "name": "whiteboard mission-critical infrastructures",
      "country": "Iran",
      "city": "Port Carolynport",
      "street": "926 Richie Ways Suite 860\nNew Kaitlinbury, NY 14819-8950",
      "streetNumber": 2490,
      "latitude": 11.5029144,
      "longitude": 124.1350098,
      "establishmentId": 6,
      "": ""
    },
    {
      "id": 97,
      "name": "orchestrate frictionless experiences",
      "country": "Yemen",
      "city": "North Ramonahaven",
      "street": "83986 Margret Roads Apt. 281\nPacochaberg, OR 47220",
      "streetNumber": 88019,
      "latitude": -36.5740395,
      "longitude": -83.6279831,
      "establishmentId": 7,
      "": ""
    },
    {
      "id": 98,
      "name": "revolutionize e-business architectures",
      "country": "Turkey",
      "city": "Port Retta",
      "street": "6246 Jason Rapids\nEinohaven, HI 83108",
      "streetNumber": 608,
      "latitude": 87.0053787,
      "longitude": -161.5898895,
      "establishmentId": 8,
      "": ""
    },
    {
      "id": 99,
      "name": "monetize user-centric initiatives",
      "country": "Afghanistan",
      "city": "Port Frederikton",
      "street": "709 Jones Estate\nSouth Hazle, KS 97828",
      "streetNumber": 7360957,
      "latitude": 59.7715225,
      "longitude": -75.0137253,
      "establishmentId": 9,
      "": ""
    },
    {
      "id": 100,
      "name": "orchestrate clicks-and-mortar networks",
      "country": "Honduras",
      "city": "East Kailynborough",
      "street": "9420 Krystal Rest Suite 770\nEast Lauriechester, NM 33377",
      "streetNumber": 81727720,
      "latitude": -68.630455,
      "longitude": 131.3463287,
      "establishmentId": 10,
      "": ""
    }
  ]